difficulty: 70
visibility: 70
diversity: 90
atmosphere: 90

water-temperatures:
  - fr-water-temperature-period: En septembre
    en-water-temperature-period: In September
    water-temperature: 22-26

best-seasons:
  - fr-best-season-from: août
    fr-best-season-to: octobre
    en-best-season-from: August
    en-best-season-to: October

fauna:
  - fr-name: Poissons tropicaux
    en-name:
    strong: false
  - fr-name: Anges royaux
    en-name:
    strong: false
  - fr-name: Murènes
    en-name:
    strong: false
  - fr-name: Frog fish
    en-name:
    strong: true
  - fr-name: Mérous
    en-name:
    strong: false
  - fr-name: Langoustes
    en-name:
    strong: false
  - fr-name: Cigales de mer
    en-name:
    strong: false
  - fr-name: Box crab
    en-name:
    strong: false
  - fr-name: Requins marteaux
    en-name:
    strong: true
  - fr-name: Requins galapagos
    en-name:
    strong: true
  - fr-name: Requins tigre
    en-name:
    strong: true
  - fr-name: Requins soyeux
    en-name:
    strong: true
  - fr-name: Requins pointes blanches de recifs
    en-name:
    strong: false
  - fr-name: Requins pointe noires
    en-name:
    strong: false
  - fr-name: Requins pointes blanches océaniques
    en-name:
    strong: true
  - fr-name: Carangues
    en-name:
    strong: false
  - fr-name: Thons jaunes
    en-name:
    strong: false
  - fr-name: Raies pastenagues
    en-name:
    strong: false
  - fr-name: Raies Manta
    en-name:
    strong: true
  - fr-name: Raies Mobula
    en-name:
    strong: true
  - fr-name: Poissons scorpions
    en-name:
    strong: false
  - fr-name: Labre rasoir masqué juvénile
    en-name:
    strong: false
  - fr-name: Anguilles jardinières
    en-name:
    strong: false

maps:
  - id: cocos
    center-lat: 5.52714
    center-lng: -87.06442
    zoom: 13
    points:
      - lat: 5.56105
        lng: -87.0469
        icon: diveFlagIcon
        place: Manuelita Garden
      - lat: 5.56282
        lng: -87.04832
        icon: diveFlagIcon
        place: Manuelita Outside
      - lat: 5.55871
        lng: -87.04798
        icon: diveFlagIcon
        place: Manuelita Channel
      - lat: 5.55012
        lng: -87.06467
        icon: diveFlagIcon
        place: Vicking Rock
      - lat: 5.54499
        lng: -87.08519
        icon: diveFlagIcon
        place: Dirty Rock
      - lat: 5.53107
        lng: -87.0912
        icon: diveFlagIcon
        place: Punta Maria
      - lat: 5.50903
        lng: -87.02304
        icon: diveFlagIcon
        place: Bajo Alcyone
      - lat: 5.55422
        lng: -87.05411
        icon: diveFlagIcon
        place: Isla Pajara
      - lat: 5.54515
        lng: -87.03081
        icon: diveFlagIconGrey
        place: Silverado
      - lat: 5.50681
        lng: -87.05703
        icon: diveFlagIconGrey
        place: Submerged Rock
      - lat: 5.51215
        lng: -87.10098
        icon: diveFlagIconGrey
        place: Dos Amigos - Big
      - lat: 5.50829
        lng: -87.10217
        icon: diveFlagIconGrey
        place: Dos Amigos - Small
      - lat: 5.5501
        lng: -87.03194
        icon: diveFlagIconGrey
        place: Lobster Rock
      - lat: 5.46443
        lng: -87.0457
        icon: diveFlagIconGrey
        place: Bait Balls
      - lat: 5.49365
        lng: -87.08132
        icon: diveFlagIconGrey
        place: Shark Fin Rock
      - lat: 5.5074
        lng: -87.09514
        icon: diveFlagIconGrey
        place: Bajo Dos Amigos
