difficulty: 50
visibility: 80
diversity: 70
atmosphere: 80

fr-water-temperature-period: En septembre
en-water-temperature-period: In September
water-temperature: 25

best-seasons:
  - fr-best-season-from: juin
    fr-best-season-to: octobre
    en-best-season-from: June
    en-best-season-to: October

fauna:
  - fr-name: Thons à dents de chien
    en-name:
    strong: false
  - fr-name: Sardines
    en-name:
    strong: false
  - fr-name: Banc de carangues bleues
    en-name:
    strong: false
  - fr-name: Poisson tropicaux
    en-name:
    strong: false
  - fr-name: Anges
    en-name:
    strong: false
  - fr-name: Murènes
    en-name:
    strong: false
  - fr-name: Coraux mous et durs multicolores
    en-name:
    strong: true
  - fr-name: Mérous pacifiques
    en-name:
    strong: false
  - fr-name: Loches marbrées
    en-name:
    strong: false
  - fr-name: Mérou géant
    en-name:
    strong: true
  - fr-name: Langoustes
    en-name:
    strong: false
  - fr-name: Nudibranches
    en-name:
    strong: false
  - fr-name: Tortues vertes
    en-name:
    strong: true
  - fr-name: Carangues
    en-name:
    strong: false
  - fr-name: Napoléons
    en-name:
    strong: false
  - fr-name: Requins pointes blanches de recif
    en-name:
    strong: false
  - fr-name: Requins pointes noires de recif
    en-name:
    strong: false
  - fr-name: Requins marteaux
    en-name:
    strong: true
  - fr-name: Raies pastenagues
    en-name:
    strong: false
  - fr-name: Raies manta
    en-name:
    strong: true
  - fr-name: Blue ribon eel
    en-name:
    strong: true
  - fr-name: Poissons scorpions feuilles
    en-name:
    strong: true
  - fr-name: Labres rasoir masqués juvéniles
    en-name:
    strong: true
  - fr-name: Anguilles jardinières
    en-name:
    strong: false

maps:
  - id: fiji
    center-lat: -17.67992
    center-lng: 178.85197
    zoom: 8
    points:
      - lat: -18.08333
        lng: 179.26638
        icon: diveFlagIcon
        place: Nigali passage
      - lat: -16.74008
        lng: 179.97041
        icon: diveFlagIcon
        place: Cabbage patch
      - lat: -16.77898
        lng: 179.92928
        icon: diveFlagIcon
        place: Jerry\'s Jelly
      - lat: -16.77557
        lng: 179.94739
        icon: diveFlagIcon
        place: Nuku reef
      - lat: -16.77062
        lng: 179.93285
        icon: diveFlagIcon
        place: Rainbow end 1
      - lat: -16.77774
        lng: 179.93639
        icon: diveFlagIcon
        place: Sam\'s point
      - lat: -16.78038
        lng: 179.94464
        icon: diveFlagIcon
        place: Fish factory
      - lat: -16.79815
        lng: 179.91168
        icon: diveFlagIcon
        place: Annie\'s bommie
      - lat: -16.79445
        lng: 179.87636
        icon: diveFlagIcon
        place: Great white wall
      - lat: -16.79346
        lng: 179.86329
        icon: diveFlagIcon
        place: Purple wall
      - lat: -16.7875
        lng: 179.93783
        icon: diveFlagIcon
        place: Jack\'s place
      - lat: -17.06993
        lng: 179.10818
        icon: diveFlagIcon
        place: North save a tack
      - lat: -17.11199
        lng: 179.07903
        icon: diveFlagIcon
        place: Chimney\'s
      - lat: -17.97461
        lng: 179.22327
        icon: diveFlagIcon
        place: Jim\'s alley
      - lat: -18.7622
        lng: 178.51422
        icon: diveFlagIcon
        place: Dravuni West
