difficulty: 40
visibility: 50
diversity: 40
atmosphere: 60

water-temperatures:
  - fr-water-temperature-period: En septembre
    en-water-temperature-period: In September
    water-temperature: 22-24

best-seasons:
  - fr-best-season-from: mai
    fr-best-season-to: septembre
    en-best-season-from: May
    en-best-season-to: September

fauna:
  - fr-name: Merous
    en-name:
    strong: true
  - fr-name: Rascasses
    en-name:
    strong: true
  - fr-name: Chapons
    en-name:
    strong: true
  - fr-name: Hippocampes
    en-name:
    strong: true
  - fr-name: Corb
    en-name:
    strong: false
  - fr-name: Mostelles
    en-name:
    strong: true
  - fr-name: Girelles paon
    en-name:
    strong: false
  - fr-name: Langoustes
    en-name:
    strong: true
  - fr-name: Gobies
    en-name:
    strong: false
  - fr-name: Blenny
    en-name:
    strong: false
  - fr-name: Vers tubicoles, vers plats
    en-name:
    strong: false
  - fr-name: Eponges
    en-name:
    strong: false
  - fr-name: Gorgones
    en-name:
    strong: false
  - fr-name: Nudibranches
    en-name:
    strong: true
  - fr-name: Bernards l'hermite
    en-name:
    strong: true
  - fr-name: Araignées
    en-name:
    strong: true
  - fr-name: Daurades
    en-name:
    strong: true
  - fr-name: Murènes
    en-name:
    strong: true
  - fr-name: Coraux rouges
    en-name:
    strong: true
maps:
  - id: magdalena
    center-lat: 41.284255
    center-lng: 9.353824
    zoom: 11
    points:
      - lat: 41.344535
        lng: 9.249263
        icon: diveFlagIcon
        place: Secca di Ponente (Western Shallow)
      - lat: 41.251607
        lng: 9.320267
        icon: diveFlagIcon
        place: Secca di Spargiotello
      - lat: 41.186156
        lng: 9.418007
        icon: diveFlagIcon
        place: Calla dell Oro
      - lat: 41.210042
        lng: 9.380157
        icon: diveFlagIcon
        place: Punta Tegge
      - lat: 41.221214
        lng: 9.491533
        icon: diveFlagIcon
        place: I Picchi
      - lat: 41.220739
        lng: 9.488068
        icon: diveFlagIcon
        place: Cale Inglese
      - lat: 41.229958
        lng: 9.482939
        icon: diveFlagIcon
        place: Grotta di San Francesco
      - lat: 41.228392
        lng: 9.487756
        icon: diveFlagIcon
        place: Secca di San Francesco
