difficulty: 40
visibility: 50
diversity: 40
atmosphere: 60

water-temperatures:
  - fr-water-temperature-period: En septembre
    en-water-temperature-period: In September
    water-temperature: 22-24

best-seasons:
  - fr-best-season-from: mai
    fr-best-season-to: septembre
    en-best-season-from: May
    en-best-season-to: September

fauna:
  - fr-name: Merous
    en-name:
    strong: true
  - fr-name: Rascasses
    en-name:
    strong: true
  - fr-name: Chapons
    en-name:
    strong: true
  - fr-name: Hippocampe
    en-name:
    strong: true
  - fr-name: Corb
    en-name:
    strong: false
  - fr-name: Mostelle
    en-name:
    strong: true
  - fr-name: Girelle paon
    en-name:
    strong: false
  - fr-name: Langoustes
    en-name:
    strong: true
  - fr-name: Gobies
    en-name:
    strong: false
  - fr-name: Blenny
    en-name:
    strong: false
  - fr-name: Ver tubicole, ver plat
    en-name:
    strong: false
  - fr-name: Eponges
    en-name:
    strong: false
  - fr-name: Gorgones
    en-name:
    strong: false
  - fr-name: Nudibranches
    en-name:
    strong: true
  - fr-name: Arraignées
    en-name:
    strong: true
  - fr-name: Daurades
    en-name:
    strong: true
  - fr-name: Murènes
    en-name:
    strong: true
  - fr-name: Coraux rouges
    en-name:
    strong: true
maps:
  - id: magdalena
    center-lat: 41.284255
    center-lng: 9.353824
    zoom: 11
    points:
      - lat: 41.186156
        lng: 9.418007
        icon: diveFlagIcon
        place: Calla dell Oro
      - lat: 41.344535
        lng: 9.249263
        icon: diveFlagIcon
        place: Western Shallow
      - lat: 42.431180
        lng: 3.170546
        icon: diveFlagIcon
        place: Foradada
      - lat: 42.478437
        lng: 3.152082
        icon: diveFlagIcon
        place: Les 3 moines
      - lat: 42.475943
        lng: 3.155959
        icon: diveFlagIcon
        place: Cap Abeille Sud
      - lat: 42.475681
        lng: 3.155592
        icon: diveFlagIcon
        place: Les tinyes
      - lat: 43.176719
        lng: 5.370283
        icon: diveFlagIcon
        place: Moyade
      - lat: 43.173811
        lng: 5.398613
        icon: diveFlagIcon
        place: Pointe Caramassaigne
      - lat: 43.188867
        lng: 5.385192
        icon: diveFlagIcon
        place: Calanque de pouars
      - lat: 43.186153
        lng: 5.391490
        icon: diveFlagIcon
        place: La grotte à Peres
