# No ref -----------------------------------------------------------------------
- lat: -20.43522
  lng: 57.32068
  icon: diveFlagIcon
  fr-country: Ile Maurice
  en-country: Mauritius
  fr-date: septembre 2013
  en-date: September 2013
- lat: 10.21775
  lng: 103.95663
  icon: diveFlagIcon
  fr-country: Vietnam
  en-country: Vietnam
  place: Phu Quoc
  fr-date: décembre 2013
  en-date: December 2013
- lat: 21.02791
  lng: 105.85108
  icon: eyeIcon
  fr-country: Vietnam
  en-country: Vietnam
  place: Hanoi
  fr-date: décembre 2013
  en-date: December 2013
- lat: 20.85432
  lng: 107.18536
  icon: eyeIcon
  fr-country: Vietnam
  en-country: Vietnam
  place: Baie d'Halong
  fr-date: décembre 2013
  en-date: December 2013
- lat: 16.47049
  lng: 107.5783
  icon: eyeIcon
  fr-country: Vietnam
  en-country: Vietnam
  place: Hué
  fr-date: décembre 2013
  en-date: December 2013
- lat: 15.87821
  lng: 108.32854
  icon: eyeIcon
  fr-country: Vietnam
  en-country: Vietnam
  place: Hoi An
  fr-date: décembre 2013
  en-date: December 2013
- lat: 9.83627
  lng: 106.21857
  icon: eyeIcon
  fr-country: Vietnam
  en-country: Vietnam
  place: Delta du Mekong
  fr-date: décembre 2013
  en-date: December 2013
- lat: 10.77547
  lng: 106.70188
  icon: eyeIcon
  fr-country: Vietnam
  en-country: Vietnam
  place: Ho Chi Minh Ville
  fr-date: décembre 2013
  en-date: December 2013
- lat: 43.51818
  lng: 7.04842
  icon: diveFlagIcon
  place: Ile de Lerins
  fr-date: juin 2005
  en-date: June 2005
- lat: 42.05143
  lng: 3.2003
  icon: diveFlagIcon
  place: Estartit
  fr-date: septembre 2005
  en-date: September 2005
- lat: 48.85334
  lng: 2.34886
  icon: homeIcon
  place: Home sweet home :-)
# With ref ---------------------------------------------------------------------
- lat: 17.21951
  lng: -89.62646
  icon: eyeIcon
  ref: belize
  fr-country: Guatemala
  en-country: Guatemala
  place: Tikal
- lat: 17.07467
  lng: -89.40262
  icon: eyeIcon
  ref: belize
  fr-country: Guatemala
  en-country: Guatemala
  place: Yaxha
- lat: 17.42665
  lng: -87.84393
  icon: diveFlagIcon
  ref: belize
  place: Turneffe Atoll
- lat: 17.39389
  lng: -87.51503
  icon: diveFlagIcon
  ref: belize
  place: Lighthouse Reef
- lat: 16.8098
  lng: -87.83157
  icon: diveFlagIcon
  ref: belize
  place: Glover Reef
- lat: 17.15375
  lng: -89.07406
  icon: eyeIcon
  ref: belize
  place: San Igniacio
- lat: 17.12078
  lng: -88.89244
  icon: eyeIcon
  ref: belize
  place: ATM (Actun Tunichil Muknal)
- lat: 28.92047
  lng: -13.66094
  icon: diveFlagIcon
  ref: canary-islands
- lat: 16.88671
  lng: -24.98924
  icon: diveFlagIcon
  ref: cape-verde
- lat: 17.06926
  lng: -25.18272
  icon: eyeIcon
  ref: cape-verde
  place: Santo Antão
- lat: 5.55151
  lng: -87.04116
  icon: diveFlagIcon
  ref: costa-rica-cocos
  fr-country: Cocos
  en-country: Cocos
- lat: 10.4608
  lng: -84.71077
  icon: eyeIcon
  ref: costa-rica-cocos
  fr-country: Costa Rica
  en-country: Costa Rica
  place: Arenal
  fr-date: mars 2006
  en-date: March 2006
- lat: 10.8124
  lng: -85.3315
  icon: eyeIcon
  ref: costa-rica-cocos
  fr-country: Costa Rica
  en-country: Costa Rica
  place: Rincon dela Vieja
  fr-date: mars 2006
  en-date: March 2006
- lat: 10.32978
  lng: -85.30609
  icon: eyeIcon
  ref: costa-rica-cocos
  fr-country: Costa Rica
  en-country: Costa Rica
  place: Monte Verde
  fr-date: mars 2006
  en-date: March 2006
- lat: 8.6893
  lng: -83.68286
  icon: eyeIcon
  ref: costa-rica-cocos
  fr-country: Costa Rica
  en-country: Costa Rica
  place: Drake Bay
  fr-date: mars 2006
  en-date: March 2006
- lat: 10.56242
  lng: -83.51635
  icon: eyeIcon
  ref: costa-rica-cocos
  fr-country: Costa Rica
  en-country: Costa Rica
  place: Tortuguero
- lat: -16.78574
  lng: 180.05825
  icon: diveFlagIcon
  ref: fiji
  place: Tavenui
- lat: -18.84567
  lng: 181.46284
  icon: diveFlagIcon
  ref: fiji
  place: Kadavu
- lat: -18.07647
  lng: 180.71028
  icon: diveFlagIcon
  ref: fiji
  place: Ngau
- lat: -17.61654
  lng: 181.01074
  icon: diveFlagIcon
  ref: fiji
  place: Wakaya
- lat: -16.71378
  lng: -151.0359
  icon: diveFlagIcon
  ref: french-polynesia
  place: La Société - Huahine
  fr-date: mai 2017
  en-date: May 2017
- lat: -15.459134
  lng: -146.336973
  icon: diveFlagIcon
  ref: french-polynesia
  place: Les Tuamotus - Apataki
  fr-date: mai 2017
  en-date: May 2017
- lat: -14.40293
  lng: -145.94273
  icon: diveFlagIcon
  ref: french-polynesia
  place: Les Tuamotus - Manihi
  fr-date: mai 2017
  en-date: May 2017
- lat: -15.00183
  lng: -148.18291
  icon: diveFlagIcon
  ref: french-polynesia
  place: Les Tuamotus - Tikehau
  fr-date: mai 2017
  en-date: May 2017
- lat: -15.9547991
  lng: -145.1783076
  icon: diveFlagIcon
  ref: french-polynesia
  place: Les Tuamotus - Kauehi
  fr-date: mai 2017
  en-date: May 2017
- lat: -16.74596
  lng: -151.41863
  icon: diveFlagIcon
  ref: french-polynesia
  place: La Société - Raiatea
  fr-date: juillet 2020
  en-date: July 2020
- lat: -17.48848
  lng: -149.92358
  icon: diveFlagIcon
  ref: french-polynesia
  place: La Société - Moorea
  fr-date: août 2020
  en-date: August 2020
- lat: -9.77538
  lng: -139.02649
  icon: diveFlagIcon
  ref: french-polynesia
  place: Les Marquises - Hiva Oa
  fr-date: septembre 2020
  en-date: September 2020
- lat: -8.86879
  lng: -140.14023
  icon: eyeIcon
  ref: french-polynesia
  place: Les Marquises - Nuku Hiva
  fr-date: septembre 2020
  en-date: September 2020
- lat: -16.3208
  lng: -145.60249
  icon: diveFlagIcon
  ref: french-polynesia
  place: Les Tuamotus - Fakarava
  fr-date: mai 2017 et juillet 2020
  en-date: May 2017 and Jully 2020
- lat: -15.9100537
  lng: -145.8975259
  icon: diveFlagIcon
  ref: french-polynesia
  place: Les Tuamotus - Toao
  fr-date: mai 2017 et juillet 2020
  en-date: May 2017 and Jully 2020
- lat: -14.97182
  lng: -147.63419
  icon: diveFlagIcon
  ref: french-polynesia
  place: Les Tuamotus - Rangiroa
  fr-date: mai 2017 et septembre 2020
  en-date: May 2017 and September 2020
- lat: -17.65449
  lng: -149.45198
  icon: eyeIcon
  ref: french-polynesia
  place: Tahiti
  fr-date: mai 2017 et septembre 2020
  en-date: May 2017 and September 2020
- lat: -2.94257
  lng: -79.2031
  icon: eyeIcon
  ref: galapagos
  fr-country: Equateur
  en-country: Ecuador
  place: Cuenca
- lat: -2.31701
  lng: -80.2468
  icon: eyeIcon
  ref: galapagos
  fr-country: Equateur
  en-country: Ecuador
  place: Guayalquil
- lat: 1.67692
  lng: -92.00247
  icon: diveFlagIcon
  ref: galapagos
  place: Darwin
- lat: 1.3826
  lng: -91.81566
  icon: diveFlagIcon
  ref: galapagos
  place: Wolf
- lat: -0.0000
  lng: -91.58849
  icon: diveFlagIcon
  ref: galapagos
  place: Isabela
- lat: -0.32591
  lng: -91.65294
  icon: diveFlagIcon
  ref: galapagos
  place: Fernandina
- lat: -0.74855
  lng: -90.3127
  icon: eyeIcon
  ref: galapagos
  place: Puerto Aroya
- lat: -0.28642
  lng: -90.55558
  icon: eyeIcon
  ref: galapagos
  place: Bartolomé
- lat: 19.63935
  lng: -155.99753
  icon: diveFlagIcon
  ref: hawaii
  place: Kona
- lat: 21.88177
  lng: -159.47743
  icon: diveFlagIcon
  ref: hawaii
  place: Kauai
- lat: 21.92664
  lng: -160.08316
  icon: diveFlagIcon
  ref: hawaii
  place: Niihau
- lat: 19.81984
  lng: -155.47122
  icon: eyeIcon
  ref: hawaii
  place: Mauna Kea
- lat: 19.4186
  lng: -155.90964
  icon: eyeIcon
  ref: hawaii
  place: Pu'uhonua o Honaunau
- lat: 22.20942
  lng: -159.59805
  icon: eyeIcon
  ref: hawaii
  place: Na pali coast
- lat: 64.25517
  lng: -21.11656
  icon: diveFlagIcon
  ref: iceland
  place: Silfra
- lat: 63.85671
  lng: -22.0475
  icon: diveFlagIcon
  ref: iceland
  place: Bjarnagjá Crack
- lat: 64.14371
  lng: -21.94382
  icon: eyeIcon
  ref: iceland
  place: Reykjavik
- lat: 63.61618
  lng: -19.99409
  icon: eyeIcon
  ref: iceland
  place: Sejalandsfoss
- lat: 63.98726
  lng: -19.06334
  icon: eyeIcon
  ref: iceland
  place: Landmannalaugar
- lat: 64.30763
  lng: -20.11236
  icon: eyeIcon
  ref: iceland
  place: Tindfjallajokull
- lat: 64.01893
  lng: -16.95396
  icon: eyeIcon
  ref: iceland
  place: Savrtifoss
- lat: 64.0722
  lng: -16.21994
  icon: eyeIcon
  ref: iceland
  place: Jokulsarlon
- lat: -8.23256
  lng: 117.48127
  icon: diveFlagIcon
  ref: indonesia
  place: Satonda
- lat: -8.71238
  lng: 115.4512
  icon: diveFlagIcon
  ref: indonesia
  place: Nusa Penida
- lat: -8.13469
  lng: 119.09935
  icon: diveFlagIcon
  ref: indonesia
  place: Sangeang
- lat: -8.52161
  lng: 119.59202
  icon: diveFlagIcon
  ref: indonesia
  place: Komodo
- lat: -8.5699
  lng: 119.50069
  icon: eyeIcon
  ref: indonesia
  place: Komodo
- lat: -8.38136
  lng: 115.44022
  icon: eyeIcon
  ref: indonesia
  place: Bali
- lat: 35.68114
  lng: 139.75777
  icon: eyeIcon
  ref: japan
  place: Tokyo
  fr-date: septembre 2009 et mai 2014
  en-date: September 2009 and May 2014
- lat: 36.72017
  lng: 139.69391
  icon: eyeIcon
  ref: japan
  place: Nikko
  fr-date: septembre 2009
  en-date: September 2009
- lat: 35.57625
  lng: 137.59502
  icon: eyeIcon
  ref: japan
  place: Tsumago
  fr-date: septembre 2009
  en-date: September 2009
- lat: 35.01847
  lng: 135.76149
  icon: eyeIcon
  ref: japan
  place: Kyoto
  fr-date: septembre 2009
  en-date: September 2009
- lat: 34.29552
  lng: 132.32037
  icon: eyeIcon
  ref: japan
  place: Miyajima
  fr-date: septembre 2009
  en-date: September 2009
- lat: 26.19364
  lng: 127.32159
  icon: diveFlagIcon
  ref: japan
  place: Kerama
- lat: 30.24353
  lng: 130.58641
  icon: diveFlagIcon
  ref: japan
  place: Yakushima
- lat: 24.4368
  lng: 123.77744
  icon: diveFlagIcon
  ref: japan
  place: Iriomote
- lat: 31.9003
  lng: 131.43425
  icon: eyeIcon
  ref: japan
  place: Miyasaki
- lat: 15.86451
  lng: -61.58908
  icon: diveFlagIcon
  ref: les-saintes
- lat: -13.32229
  lng: 48.16094
  icon: diveFlagIcon
  ref: madagascar
  place: Nosy Be
- lat: -14.36354
  lng: 47.64461
  icon: diveFlagIcon
  ref: madagascar
  place: Radama
- lat: -14.06732
  lng: 47.78023
  icon: diveFlagIcon
  ref: madagascar
  place: Radama
- lat: 4.37859
  lng: 73.50815
  icon: diveFlagIcon
  ref: maldives
- lat: 14.54025
  lng: -61.03604
  icon: diveFlagIcon
  ref: martinique
- lat: 20.47553
  lng: -86.97563
  icon: diveFlagIcon
  ref: mexico
  place: Cozumel
- lat: 20.33545
  lng: -87.40551
  icon: diveFlagIcon
  ref: mexico
  place: Cenotes
- lat: 20.2146
  lng: -87.43092
  icon: eyeIcon
  ref: mexico
  place: Tulum
- lat: 20.6828
  lng: -88.56877
  icon: eyeIcon
  ref: mexico
  place: Chichen Itza
- lat: 9.44094
  lng: 138.05549
  icon: diveFlagIcon
  ref: micronesia
  place: Yap
- lat: 7.34666
  lng: 151.88999
  icon: diveFlagIcon
  ref: micronesia
  place: Chuuk
- lat: 6.86676
  lng: 158.10536
  icon: diveFlagIcon
  ref: micronesia
  place: Pohnpei
- lat: -26.841
  lng: 32.88478
  icon: diveFlagIcon
  ref: mozambique
  place: Ponta do Oro
- lat: 7.33666
  lng: 134.21533
  icon: diveFlagIcon
  ref: palau
  place: Siaes Corner
- lat: 6.97865
  lng: 134.2225
  icon: diveFlagIcon
  ref: palau
  place: Peleliu Wall
- lat: 7.34408
  lng: 134.47369
  icon: eyeIcon
  ref: palau
  place: Koror
- lat: 0.23842
  lng: 6.76026
  icon: diveFlagIcon
  ref: sao-tome
  place: Santana
- lat: -30.20694
  lng: 30.7988
  icon: diveFlagIcon
  ref: south-africa
  place: Aliwal Sohal
- lat: -28.37743
  lng: 32.41456
  icon: eyeIcon
  ref: south-africa
  place: Sainte Lucie
- lat: 17.48031
  lng: -62.98658
  icon: diveFlagIcon
  ref: statia
- lat: -5.29197
  lng: 39.65826
  icon: diveFlagIcon
  ref: tanzania
  place: Pemba
- lat: -1.77401
  lng: 35.17548
  icon: eyeIcon
  ref: tanzania
  place: Serengeti
- lat: -4.12181
  lng: 36.07635
  icon: eyeIcon
  ref: tanzania
  place: Tarangire
- lat: -3.20899
  lng: 35.47829
  icon: eyeIcon
  ref: tanzania
  place: N'Gorongoro
- lat: -3.62992
  lng: 35.80856
  icon: eyeIcon
  ref: tanzania
  place: Manyara
