# No ref -----------------------------------------------------------------------
- lat: -20.43522
  lng: 57.32068
  icon: diveFlagIcon
  fr-country: Ile Maurice
  en-country: Mauritius
  fr-date: septembre 2013
  en-date: September 2013
- lat: 10.21775
  lng: 103.95663
  icon: diveFlagIcon
  fr-country: Vietnam
  en-country: Vietnam
  place: Phu Quoc
  fr-date: décembre 2013
  en-date: December 2013
- lat: 43.51818
  lng: 7.04842
  icon: diveFlagIcon
  place: Ile de Lerins
  fr-date: juin 2005
  en-date: June 2005
- lat: 42.045051
  lng: 3.224359
  icon: diveFlagIcon
  place: Iles Medes
  fr-date: septembre 2005
  en-date: September 2005
- lat: 48.85334
  lng: 2.34886
  icon: homeIcon
  place: Home sweet home :-)
- lat: 17.42665
  lng: -87.84393
  icon: diveFlagIcon
  ref: belize
  place: Turneffe Atoll
- lat: 17.39389
  lng: -87.51503
  icon: diveFlagIcon
  ref: belize
  place: Lighthouse Reef
- lat: 16.8098
  lng: -87.83157
  icon: diveFlagIcon
  ref: belize
  place: Glover Reef
- lat: 16.88671
  lng: -24.98924
  icon: diveFlagIcon
  ref: cape-verde
- lat: 5.55151
  lng: -87.04116
  icon: diveFlagIcon
  ref: costa-rica-cocos
  fr-country: Cocos
  en-country: Cocos
- lat: -16.78574
  lng: 180.05825
  icon: diveFlagIcon
  ref: fiji
  place: Tavenui
- lat: -18.84567
  lng: 181.46284
  icon: diveFlagIcon
  ref: fiji
  place: Kadavu
- lat: -18.07647
  lng: 180.71028
  icon: diveFlagIcon
  ref: fiji
  place: Ngau
- lat: -17.61654
  lng: 181.01074
  icon: diveFlagIcon
  ref: fiji
  place: Wakaya
- lat: -16.71378
  lng: -151.0359
  icon: diveFlagIcon
  ref: french-polynesia
  place: La Société - Huahine
  fr-date: mai 2017
  en-date: May 2017
- lat: -15.459134
  lng: -146.336973
  icon: diveFlagIcon
  ref: french-polynesia
  place: Les Tuamotus - Apataki
  fr-date: mai 2017
  en-date: May 2017
- lat: -14.40293
  lng: -145.94273
  icon: diveFlagIcon
  ref: french-polynesia
  place: Les Tuamotus - Manihi
  fr-date: mai 2017
  en-date: May 2017
- lat: -15.00183
  lng: -148.18291
  icon: diveFlagIcon
  ref: french-polynesia
  place: Les Tuamotus - Tikehau
  fr-date: mai 2017
  en-date: May 2017
- lat: -15.9547991
  lng: -145.1783076
  icon: diveFlagIcon
  ref: french-polynesia
  place: Les Tuamotus - Kauehi
  fr-date: mai 2017
  en-date: May 2017
- lat: -16.74596
  lng: -151.41863
  icon: diveFlagIcon
  ref: french-polynesia
  place: La Société - Raiatea
  fr-date: juillet 2020
  en-date: July 2020
- lat: -17.48848
  lng: -149.92358
  icon: diveFlagIcon
  ref: french-polynesia
  place: La Société - Moorea
  fr-date: août 2020
  en-date: August 2020
- lat: -9.77538
  lng: -139.02649
  icon: diveFlagIcon
  ref: french-polynesia
  place: Les Marquises - Hiva Oa
  fr-date: septembre 2020
  en-date: September 2020
- lat: -16.3208
  lng: -145.60249
  icon: diveFlagIcon
  ref: french-polynesia
  place: Les Tuamotus - Fakarava
  fr-date: mai 2017 et juillet 2020
  en-date: May 2017 and Jully 2020
- lat: -15.9100537
  lng: -145.8975259
  icon: diveFlagIcon
  ref: french-polynesia
  place: Les Tuamotus - Toao
  fr-date: mai 2017 et juillet 2020
  en-date: May 2017 and Jully 2020
- lat: -14.97182
  lng: -147.63419
  icon: diveFlagIcon
  ref: french-polynesia
  place: Les Tuamotus - Rangiroa
  fr-date: mai 2017 et septembre 2020
  en-date: May 2017 and September 2020
- lat: 1.67692
  lng: -92.00247
  icon: diveFlagIcon
  ref: galapagos
  place: Darwin
- lat: 1.3826
  lng: -91.81566
  icon: diveFlagIcon
  ref: galapagos
  place: Wolf
- lat: -0.0000
  lng: -91.58849
  icon: diveFlagIcon
  ref: galapagos
  place: Isabela
- lat: -0.32591
  lng: -91.65294
  icon: diveFlagIcon
  ref: galapagos
  place: Fernandina
- lat: 19.63935
  lng: -155.99753
  icon: diveFlagIcon
  ref: hawaii
  place: Kona
- lat: 21.88177
  lng: -159.47743
  icon: diveFlagIcon
  ref: hawaii
  place: Kauai
- lat: 21.92664
  lng: -160.08316
  icon: diveFlagIcon
  ref: hawaii
  place: Niihau
- lat: 64.25517
  lng: -21.11656
  icon: diveFlagIcon
  ref: iceland
  place: Silfra
- lat: 63.85671
  lng: -22.0475
  icon: diveFlagIcon
  ref: iceland
  place: Bjarnagjá Crack
- lat: -8.23256
  lng: 117.48127
  icon: diveFlagIcon
  ref: indonesia
  place: Satonda
- lat: -8.71238
  lng: 115.4512
  icon: diveFlagIcon
  ref: indonesia
  place: Nusa Penida
- lat: -8.13469
  lng: 119.09935
  icon: diveFlagIcon
  ref: indonesia
  place: Sangeang
- lat: -8.52161
  lng: 119.59202
  icon: diveFlagIcon
  ref: indonesia
  place: Komodo
- lat: 26.19364
  lng: 127.32159
  icon: diveFlagIcon
  ref: japan
  place: Kerama
- lat: 30.24353
  lng: 130.58641
  icon: diveFlagIcon
  ref: japan
  place: Yakushima
- lat: 24.4368
  lng: 123.77744
  icon: diveFlagIcon
  ref: japan
  place: Iriomote
- lat: 15.86451
  lng: -61.58908
  icon: diveFlagIcon
  ref: les-saintes
- lat: -13.32229
  lng: 48.16094
  icon: diveFlagIcon
  ref: madagascar
  place: Nosy Be
- lat: -14.36354
  lng: 47.64461
  icon: diveFlagIcon
  ref: madagascar
  place: Radama
- lat: -14.06732
  lng: 47.78023
  icon: diveFlagIcon
  ref: madagascar
  place: Radama
- lat: 4.37859
  lng: 73.50815
  icon: diveFlagIcon
  ref: maldives
- lat: 14.54025
  lng: -61.03604
  icon: diveFlagIcon
  ref: martinique
- lat: 20.47553
  lng: -86.97563
  icon: diveFlagIcon
  ref: mexico
  place: Cozumel
- lat: 20.33545
  lng: -87.40551
  icon: diveFlagIcon
  ref: mexico
  place: Cenotes
- lat: 9.44094
  lng: 138.05549
  icon: diveFlagIcon
  ref: micronesia
  place: Yap
- lat: 7.34666
  lng: 151.88999
  icon: diveFlagIcon
  ref: micronesia
  place: Chuuk
- lat: 6.86676
  lng: 158.10536
  icon: diveFlagIcon
  ref: micronesia
  place: Pohnpei
- lat: -26.841
  lng: 32.88478
  icon: diveFlagIcon
  ref: mozambique
  place: Ponta do Oro
- lat: 7.33666
  lng: 134.21533
  icon: diveFlagIcon
  ref: palau
  place: Siaes Corner
- lat: 6.97865
  lng: 134.2225
  icon: diveFlagIcon
  ref: palau
  place: Peleliu Wall
- lat: 0.23842
  lng: 6.76026
  icon: diveFlagIcon
  ref: sao-tome
  place: Santana
- lat: -30.20694
  lng: 30.7988
  icon: diveFlagIcon
  ref: south-africa
  place: Aliwal Sohal
- lat: 17.48351
  lng: -62.99791
  icon: diveFlagIcon
  ref: statia
  place: Chien Tong
- lat: -5.29197
  lng: 39.65826
  icon: diveFlagIcon
  ref: tanzania
  place: Pemba
- lat : 42.448153
  lng: 3.170847
  icon: diveFlagIcon
  ref: france
  place: Cerbère
- lat: 43.176719
  lng: 5.370283
  icon: diveFlagIcon
  ref: france
  place: Riou
- lat: 41.180094
  lng: 9.417727
  icon: diveFlagIcon
  ref: sardaigne
  place: Magdalena
- lat: 41.342531
  lng: 9.246932
  icon: diveFlagIcon
  ref: sardaigne
  place: Lavezzi
- lat: 28.919325
  lng: -13.673829
  icon: diveFlagIcon
  ref: canaries
  place: Puerto del Carmen
- lat: 25.338004
  lng: 34.739119
  icon: diveFlagIcon
  ref: egypt
  place: Marsa Abu Dabbab
- lat: 12.141998
  lng: -68.275887
  icon: diveFlagIcon
  ref: bonaire
  place: Calabas
- lat: -4.40573
  lng: 55.76929
  icon: diveFlagIcon
  ref: seychelles
  place: Shark bank
- lat: 23.563611
  lng: 36.245
  icon: diveFlagIcon
  ref: egypt
  place: Rocky Island
- lat: 25.087140
  lng: 34.941816
  icon: diveFlagIcon
  ref: egypt
  place: Shaab Marsa Alam
- lat: 11.955981
  lng: 120.216878
  icon: diveFlagIcon
  ref: philippines
  place: Barracuda Lake
- lat: 9.73933
  lng: 119.81670
  icon: diveFlagIcon
  ref: philippines
  place: Lighthouse
- lat: 43.02741
  lng: 6.24080
  icon: diveFlagIcon
  place: Porquerolles
  ref: france
  fr-date: juillet 2023
  en-date: July 2023
- lat: 43.539565
  lng: 7.083265
  icon: diveFlagIcon
  place: Cap d'Antibes
  ref: france
  fr-date: août 2023
  en-date: August 2023
- lat: 23.45540
  lng: -109.41507
  icon: diveFlagIcon
  place: Cabo Pulmo
  ref: mexico2
  fr-date: avril 2024
  en-date: April 2024
- lat: 18.99199
  lng: -112.08400
  icon: diveFlagIcon
  place: Socorro
  ref: mexico2
  fr-date: avril-mai 2024
  en-date: April 2024
- lat: 37.74293
  lng: -25.62799
  icon: diveFlagIcon
  place: Açores
  ref: acores
  fr-date: juillet 2024
  en-date: Jully 2024
